{"region_id": "RBEC", "operating_unit_email": null, "outputs": [{"output_id": "00014599", "crs": null, "donor_id": ["01256", "01278", "00012", "00587"], "disbursement": [0.0, 0.0], "focus_area": "-", "gender_descr": "Gender Equality", "output_title": "Beautiful Romania", "budget": [50866.0, 3163.0], "fiscal_year": [2012, 2013], "gender_id": "1", "expenditure": [37757.0, 18.0], "award_id": "00014599", "output_descr": "Employment created for youth and PIYA through public works, vocational training and job counseling.", "donor_short": ["UNDP", "AIM", "LOCA", "MCRA"], "donor_name": ["Voluntary Contributions", "ROM-ALBA IULIA MUNICIPALITY", "ROM-OTHER LOCAL AUTHORITIES", "ROM-MINISTRY OF CULTURE & RELI"], "expense": [37757.0, 18.0], "crs_descr": null, "focus_area_descr": "-"}], "operating_unit": "Romania", "fiscal_year": [2013, 2012], "inst_id": "02631", "project_descr": "Generate an economic sustainable development through a process of urban revitalization of neglected or degraded historical city centres while initiating employment, social inclusion and job creation for vulnerable groups or youth unemployed", "operating_unit_id": "ROU", "expenditure": 37775.0, "iati_op_id": "RO", "document_name": [["00014599_Project Document BR signed_20032006"], ["https://info.undp.org/docs/pdc/Documents/ROU/00014599_Project Document BR signed_2003-2006.pdf"], ["pdf"], [0]], "project_id": "00014599", "disbursement": 0.0, "end": "2013-12-31", "project_title": "beautiful romania", "subnational": [{"outputID": "00014599", "output_locID": "00014599-1", "name": "T\u00e2rgoviste", "focus_area": "-", "lat": "44.925430", "type": "PPLA", "awardID": "00014599", "lon": "25.456700", "precision": "1", "focus_area_descr": "-"}, {"outputID": "00014599", "output_locID": "00014599-2", "name": "Sibiu", "focus_area": "-", "lat": "45.800000", "type": "PPLA", "awardID": "00014599", "lon": "24.150000", "precision": "1", "focus_area_descr": "-"}, {"outputID": "00014599", "output_locID": "00014599-3", "name": "Miercurea-Ciuc", "focus_area": "-", "lat": "46.350000", "type": "PPLA", "awardID": "00014599", "lon": "25.800000", "precision": "1", "focus_area_descr": "-"}, {"outputID": "00014599", "output_locID": "00014599-4", "name": "Mecea", "focus_area": "-", "lat": "44.773880", "type": "PPL", "awardID": "00014599", "lon": "23.801330", "precision": "1", "focus_area_descr": "-"}, {"outputID": "00014599", "output_locID": "00014599-5", "name": "Craiova", "focus_area": "-", "lat": "44.316670", "type": "PPLA", "awardID": "00014599", "lon": "23.800000", "precision": "1", "focus_area_descr": "-"}, {"outputID": "00014599", "output_locID": "00014599-6", "name": "Bucharest", "focus_area": "-", "lat": "44.432250", "type": "PPLC", "awardID": "00014599", "lon": "26.106260", "precision": "1", "focus_area_descr": "-"}, {"outputID": "00014599", "output_locID": "00014599-7", "name": "Brasov", "focus_area": "-", "lat": "45.648610", "type": "PPLA", "awardID": "00014599", "lon": "25.606130", "precision": "1", "focus_area_descr": "-"}, {"outputID": "00014599", "output_locID": "00014599-8", "name": "Braila", "focus_area": "-", "lat": "45.266670", "type": "PPLA", "awardID": "00014599", "lon": "27.983330", "precision": "1", "focus_area_descr": "-"}, {"outputID": "00014599", "output_locID": "00014599-9", "name": "Bistrita", "focus_area": "-", "lat": "47.133160", "type": "PPLA", "awardID": "00014599", "lon": "24.500110", "precision": "1", "focus_area_descr": "-"}, {"outputID": "00014599", "output_locID": "00014599-10", "name": "Alba Iulia", "focus_area": "-", "lat": "46.066670", "type": "PPLA", "awardID": "00014599", "lon": "23.583330", "precision": "1", "focus_area_descr": "-"}, {"outputID": "00014599", "output_locID": "00014599-11", "name": "Oras Sulina", "focus_area": "-", "lat": "45.156080", "type": "ADM2", "awardID": "00014599", "lon": "29.651970", "precision": "1", "focus_area_descr": "-"}, {"outputID": "00014599", "output_locID": "00014599-12", "name": "Municipiul Sighisoara", "focus_area": "-", "lat": "46.228160", "type": "ADM2", "awardID": "00014599", "lon": "24.779270", "precision": "1", "focus_area_descr": "-"}], "budget": 54029.0, "inst_descr": "GOVERNMENT", "start": "2001-06-01", "operating_unit_website": null, "expense": 37775.0, "inst_type_id": "10"}