{"region_id": "RBA", "operating_unit_email": "registry.bj@undp.org", "outputs": [{"output_id": "00063975", "crs": "23030", "donor_id": ["00062"], "disbursement": [0.0, 0.0, 0.0], "focus_area": "1", "gender_descr": "Gender Equality", "output_title": "Hydraulique Villageoise", "budget": [289975.0, 53000.0, 0.0], "fiscal_year": [2012, 2013, 2015], "gender_id": "1", "expenditure": [280300.0, 52251.0, 0.0], "award_id": "00051397", "output_descr": "Projet Hydraulique Villageoise", "donor_short": ["BEN"], "donor_name": ["GOVERNMENT OF BENIN"], "expense": [280300.0, 52251.0, 0.0], "crs_descr": null, "focus_area_descr": "Inclusive & Sustainable Growth"}], "operating_unit": "Benin", "fiscal_year": [2015, 2012, 2013], "inst_id": "00238", "project_descr": "Projet Hydraulique Villageoise", "operating_unit_id": "BEN", "expenditure": 332551.0, "iati_op_id": "BJ", "document_name": [["Projet Hydraulique Villageoise", "EVALUATION FINALE DU PROGRAMME PAYS (CPD) 2009-2013", "UNDAF%20Benin%202014-2018", "Request for Procurement"], ["https://info.undp.org/docs/pdc/Documents/BEN/PRODOC PHV.pdf", "http://erc.undp.org/evaluationadmin/manageevaluation/viewevaluationdetail.html?evalid=4645", "http://www.bj.undp.org/content/benin/fr/home/operations/legal_framework/_jcr_content/centerparsys/download_0/file.res/UNDAF Benin 2014-2018.pdf", "http://procurement-notices.undp.org/index.cfm"], ["pdf", "", "pdf", ""], [0, 5, 7, 10]], "project_id": "00051397", "disbursement": 0.0, "end": "2012-12-31", "project_title": "hydraulique villageoise", "subnational": [{"outputID": "00063975", "output_locID": "00063975-1", "name": "Kouand\u00e9", "focus_area": "1", "lat": "10.341680", "type": "PPL", "awardID": "00051397", "lon": "1.689240", "precision": "1", "focus_area_descr": "Inclusive & Sustainable Growth"}, {"outputID": "00063975", "output_locID": "00063975-2", "name": "Porto-Novo", "focus_area": "1", "lat": "6.496460", "type": "PPLC", "awardID": "00051397", "lon": "2.603590", "precision": "1", "focus_area_descr": "Inclusive & Sustainable Growth"}, {"outputID": "00063975", "output_locID": "00063975-3", "name": "P\u00e9honko", "focus_area": "1", "lat": "10.227460", "type": "PPL", "awardID": "00051397", "lon": "2.001920", "precision": "1", "focus_area_descr": "Inclusive & Sustainable Growth"}, {"outputID": "00063975", "output_locID": "00063975-4", "name": "Natitingou", "focus_area": "1", "lat": "10.304160", "type": "PPLA", "awardID": "00051397", "lon": "1.379620", "precision": "1", "focus_area_descr": "Inclusive & Sustainable Growth"}, {"outputID": "00063975", "output_locID": "00063975-5", "name": "Djougou", "focus_area": "1", "lat": "9.708530", "type": "PPLA", "awardID": "00051397", "lon": "1.665980", "precision": "1", "focus_area_descr": "Inclusive & Sustainable Growth"}, {"outputID": "00063975", "output_locID": "00063975-6", "name": "Kopargo", "focus_area": "1", "lat": "9.841080", "type": "PPL", "awardID": "00051397", "lon": "1.542310", "precision": "1", "focus_area_descr": "Inclusive & Sustainable Growth"}, {"outputID": "00063975", "output_locID": "00063975-7", "name": "Boukoumb\u00e9", "focus_area": "1", "lat": "10.177110", "type": "PPL", "awardID": "00051397", "lon": "1.106210", "precision": "1", "focus_area_descr": "Inclusive & Sustainable Growth"}, {"outputID": "00063975", "output_locID": "00063975-8", "name": "Bassila", "focus_area": "1", "lat": "9.008140", "type": "PPL", "awardID": "00051397", "lon": "1.665400", "precision": "1", "focus_area_descr": "Inclusive & Sustainable Growth"}, {"outputID": "00063975", "output_locID": "00063975-9", "name": "Kobli", "focus_area": "1", "lat": "10.479420", "type": "PPL", "awardID": "00051397", "lon": "1.012290", "precision": "1", "focus_area_descr": "Inclusive & Sustainable Growth"}, {"outputID": "00063975", "output_locID": "00063975-10", "name": "Kerou", "focus_area": "1", "lat": "10.914330", "type": "ADM2", "awardID": "00051397", "lon": "1.991530", "precision": "1", "focus_area_descr": "Inclusive & Sustainable Growth"}, {"outputID": "00063975", "output_locID": "00063975-11", "name": "Ouake", "focus_area": "1", "lat": "9.599590", "type": "ADM2", "awardID": "00051397", "lon": "1.437070", "precision": "1", "focus_area_descr": "Inclusive & Sustainable Growth"}, {"outputID": "00063975", "output_locID": "00063975-12", "name": "Toukountouna", "focus_area": "1", "lat": "10.514240", "type": "ADM2", "awardID": "00051397", "lon": "1.455270", "precision": "1", "focus_area_descr": "Inclusive & Sustainable Growth"}, {"outputID": "00063975", "output_locID": "00063975-13", "name": "Materi", "focus_area": "1", "lat": "10.798600", "type": "ADM2", "awardID": "00051397", "lon": "1.027560", "precision": "1", "focus_area_descr": "Inclusive & Sustainable Growth"}], "budget": 342975.0, "inst_descr": "National Execution", "start": "2009-01-01", "operating_unit_website": null, "expense": 332551.0, "inst_type_id": "10"}